{
    "companies": [
      {
        "id": 1,
        "name": "קומקס",
        "city": "חולון",
        "address": "החורטים 11",
        "latitude": "32.0286543",
        "longitude": "34.7942146",
        "img":"https://img.icons8.com/color/48/000000/new-company.png"
      },
      {
        "id": 2,
        "name": "מייקרוסופט",
        "city": "הרצליה",
        "address": "אריה שנקר 13",
        "latitude": "32.1579889",
        "longitude": "34.8085177",
        "img":"https://img.icons8.com/color/48/000000/new-company.png"
      },
      {
        "id": 3,
        "name": "איי בי אם",
        "city": "הרצליה",
        "address": "ספיר 1",
        "latitude": "32.1645242",
        "longitude": "34.812074",
        "img":"https://img.icons8.com/color/48/000000/new-company.png"
      },
      {
        "id": 4,
        "name": "גוגל ישראל",
        "city": "תל אביב",
        "address": "יגאל אלון 98",
        "latitude": "32.0700544",
        "longitude": "34.7941211",
        "img":"https://img.icons8.com/color/48/000000/new-company.png"
      },
      {
        "id": 5,
        "name": "וויקס",
        "city": "תל אביב",
        "address": "נמל תל אביב 36",
        "latitude": "32.0966416",
        "longitude": "34.7731584",
        "img":"https://img.icons8.com/color/48/000000/new-company.png"
      },
      {
        "id": 6,
        "name": "תנובה",
        "city": "רחובות",
        "address": "יצחק פניגר 2",
        "latitude": "31.8976218",
        "longitude": "34.7964478",
        "img":"https://img.icons8.com/color/48/000000/new-company.png"
      },
      {
        "id": 7,
        "name": "תנובה",
        "city": "רחובות",
        "address": "יצחק פניגר 2",
        "latitude": "31.8976218",
        "longitude": "34.7964478",
        "img":"https://img.icons8.com/color/48/000000/new-company.png"
      },
      {
        "id": 8,
        "name": "תנובה",
        "city": "רחובות",
        "address": "יצחק פניגר 2",
        "latitude": "31.8976218",
        "longitude": "34.7964478",
        "img":"https://img.icons8.com/color/48/000000/new-company.png"
      },
      {
        "id": 9,
        "name": "סימילר ווב",
        "city": "תל אביב",
        "address": "דרך מנחם בגין 23",
        "latitude": "32.063696",
        "longitude": "34.7792026",
        "img":"https://img.icons8.com/color/48/000000/new-company.png"
      },
      {
        "id": 10,
        "name": "פידווייזר",
        "city": "רמת גן",
        "address": "דרך זאב זבוטינסקי 2",
        "latitude": "32.08213",
        "longitude": "34.8007846",
        "img":"https://img.icons8.com/color/48/000000/new-company.png"
      },
      {
         "id": 11,
        "name": "בנק הפועלים",
        "city": "ראשון לציון",
        "address": "רוטשילד 13",
        "latitude": "32.0268071",
        "longitude": "34.7434831",
        "img":"https://img.icons8.com/color/48/000000/new-company.png"
      },
      {
         "id": 12,
        "name": "פוקס ויזל",
        "city": "לוד",
        "address": "החרמון 6",
        "latitude": "32.1962827",
        "longitude": "34.8484072",
        "img":"https://img.icons8.com/color/48/000000/new-company.png"
      }
    ]
  }
  